[
  {"latitude": "55.7313089", "user_id": 12, "name": "Christina McArdle", "longitude": "37.6456972"},
  {"latitude": "53.707054", "user_id": 1, "name": "Alice Cahill", "longitude": "38.203620"},
  {"latitude": "55.138641", "user_id": 2, "name": "Ian McArdle", "longitude": "39.203375"},
  {"latitude": "55.758594", "user_id": 3, "name": "Jack Enright", "longitude": "37.808112"},
  {"latitude": "55.223327", "user_id": 28, "name": "Charlie Halligan", "longitude": "38.011359"},
  {"latitude": "55.546953", "user_id": 7, "name": "Frank Kehoe", "longitude": "37.628983"},
  {"latitude": "55.729877", "user_id": 8, "name": "Eoin Ahearn", "longitude": "39.265946"},
  {"latitude": "56.143716", "user_id": 26, "name": "Stephen McArdle", "longitude": "37.653007"},
  {"latitude": "55.719069", "user_id": 27, "name": "Enid Gallagher", "longitude": "37.515678"},
  {"latitude": "55.306433", "user_id": 6, "name": "Theresa Enright", "longitude": "37.076225"},
  {"latitude": "56.223851", "user_id": 9, "name": "Jack Dempsey", "longitude": "38.861967"},
  {"latitude": "56.015621", "user_id": 10, "name": "Georgina Gallagher", "longitude": "40.328641"},
  {"latitude": "55.050413", "user_id": 4, "name": "Ian Kehoe", "longitude": "39.598938"},
  {"latitude": "54.875912", "user_id": 5, "name": "Nora Dempsey", "longitude": "38.749442"},
  {"latitude": "57.392741", "user_id": 11, "name": "Richard Finnegan", "longitude": "35.608813"},
  {"latitude": "55.999457", "user_id": 31, "name": "Alan Behan", "longitude": "36.938158"},
  {"latitude": "55.697248", "user_id": 13, "name": "Olive Ahearn", "longitude": "38.619067"},
  {"latitude": "55.771476", "user_id": 14, "name": "Helen Cahill", "longitude": "38.201586"},
  {"latitude": "54.924038", "user_id": 15, "name": "Michael Ahearn", "longitude": "40.680948"},
  {"latitude": "53.292639", "user_id": 16, "name": "Ian Larkin", "longitude": "35.077921"},
  {"latitude": "53.749848", "user_id": 17, "name": "Patricia Cahill", "longitude": "37.077433"},
  {"latitude": "57.822380", "user_id": 39, "name": "Lisa Ahearn", "longitude": "36.747843"},
  {"latitude": "54.662236", "user_id": 18, "name": "Bob Larkin", "longitude": "38.637491"},
  {"latitude": "53.801787", "user_id": 24, "name": "Rose Enright", "longitude": "38.703409"},
  {"latitude": "55.263521", "user_id": 19, "name": "Enid Cahill", "longitude": "38.439738"},
  {"latitude": "55.649751", "user_id": 20, "name": "Enid Enright", "longitude": "38.571573"},
  {"latitude": "56.154780", "user_id": 21, "name": "David Ahearn", "longitude": "38.637491"},
  {"latitude": "54.415787", "user_id": 22, "name": "Charlie McArdle", "longitude": "38.945109"},
  {"latitude": "56.337908", "user_id": 29, "name": "Oliver Ahearn", "longitude": "37.275187"},
  {"latitude": "53.939976", "user_id": 30, "name": "Nick Enright", "longitude": "37.187296"},
  {"latitude": "55.488244", "user_id": 23, "name": "Eoin Gallagher", "longitude": "35.868937"},
  {"latitude": "55.087853", "user_id": 25, "name": "David Behan", "longitude": "38.593546"}
]